[
  {
    "number": 42,
    "id": "42",
    "contract_name": "dublin",
    "name": "SMITHFIELD NORTH",
    "address": "Smithfield North",
    "position": {
      "lat": 53.349562,
      "lng": -6.278198
    },
    "banking": false,
    "bonus": false,
    "bike_stands": 53,
    "available_bike_stands": 39,
    "available_bikes": 14,
    "status": "OPEN",
    "last_update": 1764009445510
  },
  {
    "number": 30,
    "id": "30",
    "contract_name": "dublin",
    "name": "PARNELL SQUARE NORTH",
    "address": "Parnell Square North",
    "position": {
      "lat": 53.3537415547453,
      "lng": -6.26530144781526
    },
    "banking": false,
    "bonus": false,
    "bike_stands": 31,
    "available_bike_stands": 28,
    "available_bikes": 3,
    "status": "OPEN",
    "last_update": 1764009445510
  },
  {
    "number": 54,
    "id": "54",
    "contract_name": "dublin",
    "name": "CLONMEL STREET",
    "address": "Clonmel Street",
    "position": {
      "lat": 53.336021,
      "lng": -6.26298
    },
    "banking": false,
    "bonus": false,
    "bike_stands": 48,
    "available_bike_stands": 25,
    "available_bikes": 23,
    "status": "OPEN",
    "last_update": 1764009445510
  },
  {
    "number": 108,
    "id": "108",
    "contract_name": "dublin",
    "name": "AVONDALE ROAD",
    "address": "Avondale Road",
    "position": {
      "lat": 53.359405,
      "lng": -6.276142
    },
    "banking": false,
    "bonus": false,
    "bike_stands": 11,
    "available_bike_stands": 7,
    "available_bikes": 4,
    "status": "OPEN",
    "last_update": 1764009445510
  },
  {
    "number": 20,
    "id": "20",
    "contract_name": "dublin",
    "name": "JAMES STREET EAST",
    "address": "James Street East",
    "position": {
      "lat": 53.336597,
      "lng": -6.248109
    },
    "banking": false,
    "bonus": false,
    "bike_stands": 20,
    "available_bike_stands": 10,
    "available_bikes": 10,
    "status": "OPEN",
    "last_update": 1764009445510
  },
  {
    "number": 56,
    "id": "56",
    "contract_name": "dublin",
    "name": "MOUNT STREET LOWER",
    "address": "Mount Street Lower",
    "position": {
      "lat": 53.33796,
      "lng": -6.24153
    },
    "banking": false,
    "bonus": false,
    "bike_stands": 19,
    "available_bike_stands": 13,
    "available_bikes": 6,
    "status": "OPEN",
    "last_update": 1764009445510
  },
  {
    "number": 6,
    "id": "6",
    "contract_name": "dublin",
    "name": "CHRISTCHURCH PLACE",
    "address": "Christchurch Place",
    "position": {
      "lat": 53.343368,
      "lng": -6.27012
    },
    "banking": false,
    "bonus": false,
    "bike_stands": 18,
    "available_bike_stands": 18,
    "available_bikes": 0,
    "status": "CLOSED",
    "last_update": 1764009445510
  },
  {
    "number": 18,
    "id": "18",
    "contract_name": "dublin",
    "name": "GRANTHAM STREET",
    "address": "Grantham Street",
    "position": {
      "lat": 53.334123,
      "lng": -6.265436
    },
    "banking": false,
    "bonus": false,
    "bike_stands": 47,
    "available_bike_stands": 27,
    "available_bikes": 20,
    "status": "OPEN",
    "last_update": 1764009445510
  },
  {
    "number": 32,
    "id": "32",
    "contract_name": "dublin",
    "name": "PEARSE STREET",
    "address": "Pearse Street",
    "position": {
      "lat": 53.344304,
      "lng": -6.250427
    },
    "banking": false,
    "bonus": false,
    "bike_stands": 48,
    "available_bike_stands": 30,
    "available_bikes": 18,
    "status": "OPEN",
    "last_update": 1764009445510
  },
  {
    "number": 52,
    "id": "52",
    "contract_name": "dublin",
    "name": "YORK STREET EAST",
    "address": "York Street East",
    "position": {
      "lat": 53.338755,
      "lng": -6.262003
    },
    "banking": false,
    "bonus": false,
    "bike_stands": 55,
    "available_bike_stands": 37,
    "available_bikes": 18,
    "status": "OPEN",
    "last_update": 1764009445510
  },
  {
    "number": 48,
    "id": "48",
    "contract_name": "dublin",
    "name": "EXCISE WALK",
    "address": "Excise Walk",
    "position": {
      "lat": 53.347777,
      "lng": -6.244239
    },
    "banking": false,
    "bonus": false,
    "bike_stands": 39,
    "available_bike_stands": 34,
    "available_bikes": 5,
    "status": "OPEN",
    "last_update": 1764009445510
  },
  {
    "number": 13,
    "id": "13",
    "contract_name": "dublin",
    "name": "FITZWILLIAM SQUARE WEST",
    "address": "Fitzwilliam Square West",
    "position": {
      "lat": 53.336074,
      "lng": -6.252825
    },
    "banking": false,
    "bonus": false,
    "bike_stands": 35,
    "available_bike_stands": 24,
    "available_bikes": 11,
    "status": "OPEN",
    "last_update": 1764009445510
  },
  {
    "number": 43,
    "id": "43",
    "contract_name": "dublin",
    "name": "PORTOBELLO ROAD",
    "address": "Portobello Road",
    "position": {
      "lat": 53.330091,
      "lng": -6.268044
    },
    "banking": false,
    "bonus": false,
    "bike_stands": 26,
    "available_bike_stands": 5,
    "available_bikes": 21,
    "status": "OPEN",
    "last_update": 1764009445510
  },
  {
    "number": 31,
    "id": "31",
    "contract_name": "dublin",
    "name": "PARNELL STREET",
    "address": "Parnell Street",
    "position": {
      "lat": 53.350929,
      "lng": -6.265125
    },
    "banking": false,
    "bonus": false,
    "bike_stands": 47,
    "available_bike_stands": 5,
    "available_bikes": 42,
    "status": "OPEN",
    "last_update": 1764009445510
  },
  {
    "number": 98,
    "id": "98",
    "contract_name": "dublin",
    "name": "FREDERICK STREET SOUTH",
    "address": "Frederick Street South",
    "position": {
      "lat": 53.341515,
      "lng": -6.256853
    },
    "banking": false,
    "bonus": false,
    "bike_stands": 20,
    "available_bike_stands": 0,
    "available_bikes": 20,
    "status": "OPEN",
    "last_update": 1764009445510
  },
  {
    "number": 14,
    "id": "14",
    "contract_name": "dublin",
    "name": "FOWNES STREET UPPER",
    "address": "Fownes Street Upper",
    "position": {
      "lat": 53.344603,
      "lng": -6.263371
    },
    "banking": false,
    "bonus": false,
    "bike_stands": 52,
    "available_bike_stands": 8,
    "available_bikes": 44,
    "status": "OPEN",
    "last_update": 1764009445510
  },
  {
    "number": 23,
    "id": "23",
    "contract_name": "dublin",
    "name": "CUSTOM HOUSE",
    "address": "Custom House",
    "position": {
      "lat": 53.348279,
      "lng": -6.254662
    },
    "banking": false,
    "bonus": false,
    "bike_stands": 28,
    "available_bike_stands": 28,
    "available_bikes": 0,
    "status": "CLOSED",
    "last_update": 1764009445510
  },
  {
    "number": 106,
    "id": "106",
    "contract_name": "dublin",
    "name": "RATHDOWN ROAD",
    "address": "Rathdown Road",
    "position": {
      "lat": 53.35893,
      "lng": -6.280337
    },
    "banking": false,
    "bonus": false,
    "bike_stands": 17,
    "available_bike_stands": 7,
    "available_bikes": 10,
    "status": "OPEN",
    "last_update": 1764009445510
  },
  {
    "number": 112,
    "id": "112",
    "contract_name": "dublin",
    "name": "NORTH CIRCULAR ROAD (O\u0027CONNELL\u0027S)",
    "address": "North Circular Road (O\u0027Connell\u0027s)",
    "position": {
      "lat": 53.357841,
      "lng": -6.251557
    },
    "banking": false,
    "bonus": false,
    "bike_stands": 26,
    "available_bike_stands": 16,
    "available_bikes": 10,
    "status": "OPEN",
    "last_update": 1764009445510
  },
  {
    "number": 68,
    "id": "68",
    "contract_name": "dublin",
    "name": "HANOVER QUAY",
    "address": "Hanover Quay",
    "position": {
      "lat": 53.344115,
      "lng": -6.237153
    },
    "banking": false,
    "bonus": false,
    "bike_stands": 24,
    "available_bike_stands": 22,
    "available_bikes": 2,
    "status": "OPEN",
    "last_update": 1764009445510
  },
  {
    "number": 74,
    "id": "74",
    "contract_name": "dublin",
    "name": "OLIVER BOND STREET",
    "address": "Oliver Bond Street",
    "position": {
      "lat": 53.343893,
      "lng": -6.280531
    },
    "banking": false,
    "bonus": false,
    "bike_stands": 12,
    "available_bike_stands": 5,
    "available_bikes": 7,
    "status": "OPEN",
    "last_update": 1764009445510
  },
  {
    "number": 87,
    "id": "87",
    "contract_name": "dublin",
    "name": "COLLINS BARRACKS MUSEUM",
    "address": "Collins Barracks Museum",
    "position": {
      "lat": 53.347477,
      "lng": -6.28525
    },
    "banking": false,
    "bonus": false,
    "bike_stands": 35,
    "available_bike_stands": 23,
    "available_bikes": 12,
    "status": "OPEN",
    "last_update": 1764009445510
  },
  {
    "number": 84,
    "id": "84",
    "contract_name": "dublin",
    "name": "BROOKFIELD ROAD",
    "address": "Brookfield Road",
    "position": {
      "lat": 53.339005,
      "lng": -6.300217
    },
    "banking": false,
    "bonus": false,
    "bike_stands": 39,
    "available_bike_stands": 14,
    "available_bikes": 25,
    "status": "OPEN",
    "last_update": 1764009445510
  },
  {
    "number": 90,
    "id": "90",
    "contract_name": "dublin",
    "name": "BENSON STREET",
    "address": "Benson Street",
    "position": {
      "lat": 53.344153,
      "lng": -6.233451
    },
    "banking": false,
    "bonus": false,
    "bike_stands": 48,
    "available_bike_stands": 10,
    "available_bikes": 38,
    "status": "OPEN",
    "last_update": 1764009445510
  },
  {
    "number": 11,
    "id": "11",
    "contract_name": "dublin",
    "name": "EARLSFORT TERRACE",
    "address": "Earlsfort Terrace",
    "position": {
      "lat": 53.334295,
      "lng": -6.258503
    },
    "banking": false,
    "bonus": false,
    "bike_stands": 17,
    "available_bike_stands": 15,
    "available_bikes": 2,
    "status": "OPEN",
    "last_update": 1764009445510
  },
  {
    "number": 17,
    "id": "17",
    "contract_name": "dublin",
    "name": "GOLDEN LANE",
    "address": "Golden Lane",
    "position": {
      "lat": 53.340803,
      "lng": -6.267732
    },
    "banking": false,
    "bonus": false,
    "bike_stands": 47,
    "available_bike_stands": 24,
    "available_bikes": 23,
    "status": "OPEN",
    "last_update": 1764009445510
  },
  {
    "number": 45,
    "id": "45",
    "contract_name": "dublin",
    "name": "DEVERELL PLACE",
    "address": "Deverell Place",
    "position": {
      "lat": 53.351464,
      "lng": -6.255265
    },
    "banking": false,
    "bonus": false,
    "bike_stands": 18,
    "available_bike_stands": 18,
    "available_bikes": 0,
    "status": "CLOSED",
    "last_update": 1764009445510
  },
  {
    "number": 114,
    "id": "114",
    "contract_name": "dublin",
    "name": "WILTON TERRACE (PARK)",
    "address": "Wilton Terrace (Park)",
    "position": {
      "lat": 53.333653,
      "lng": -6.248345
    },
    "banking": false,
    "bonus": false,
    "bike_stands": 24,
    "available_bike_stands": 18,
    "available_bikes": 6,
    "status": "OPEN",
    "last_update": 1764009445510
  },
  {
    "number": 72,
    "id": "72",
    "contract_name": "dublin",
    "name": "JOHN STREET WEST",
    "address": "John Street West",
    "position": {
      "lat": 53.343105,
      "lng": -6.277167
    },
    "banking": false,
    "bonus": false,
    "bike_stands": 39,
    "available_bike_stands": 11,
    "available_bikes": 28,
    "status": "OPEN",
    "last_update": 1764009445510
  },
  {
    "number": 63,
    "id": "63",
    "contract_name": "dublin",
    "name": "FENIAN STREET",
    "address": "Fenian Street",
    "position": {
      "lat": 53.341428,
      "lng": -6.24672
    },
    "banking": false,
    "bonus": false,
    "bike_stands": 16,
    "available_bike_stands": 7,
    "available_bikes": 9,
    "status": "OPEN",
    "last_update": 1764009445510
  },
  {
    "number": 113,
    "id": "113",
    "contract_name": "dublin",
    "name": "MERRION SQUARE SOUTH",
    "address": "Merrion Square South",
    "position": {
      "lat": 53.338614,
      "lng": -6.248606
    },
    "banking": false,
    "bonus": false,
    "bike_stands": 42,
    "available_bike_stands": 12,
    "available_bikes": 30,
    "status": "OPEN",
    "last_update": 1764009445510
  },
  {
    "number": 91,
    "id": "91",
    "contract_name": "dublin",
    "name": "SOUTH DOCK ROAD",
    "address": "South Dock Road",
    "position": {
      "lat": 53.341833,
      "lng": -6.231291
    },
    "banking": false,
    "bonus": false,
    "bike_stands": 13,
    "available_bike_stands": 2,
    "available_bikes": 11,
    "status": "OPEN",
    "last_update": 1764009445510
  },
  {
    "number": 99,
    "id": "99",
    "contract_name": "dublin",
    "name": "CITY QUAY",
    "address": "City Quay",
    "position": {
      "lat": 53.346637,
      "lng": -6.246154
    },
    "banking": false,
    "bonus": false,
    "bike_stands": 21,
    "available_bike_stands": 16,
    "available_bikes": 5,
    "status": "OPEN",
    "last_update": 1764009445510
  },
  {
    "number": 9,
    "id": "9",
    "contract_name": "dublin",
    "name": "EXCHEQUER STREET",
    "address": "Exchequer Street",
    "position": {
      "lat": 53.343034,
      "lng": -6.263578
    },
    "banking": false,
    "bonus": false,
    "bike_stands": 53,
    "available_bike_stands": 41,
    "available_bikes": 12,
    "status": "OPEN",
    "last_update": 1764009445510
  },
  {
    "number": 67,
    "id": "67",
    "contract_name": "dublin",
    "name": "THE POINT",
    "address": "The Point",
    "position": {
      "lat": 53.346867,
      "lng": -6.230852
    },
    "banking": false,
    "bonus": false,
    "bike_stands": 53,
    "available_bike_stands": 52,
    "available_bikes": 1,
    "status": "OPEN",
    "last_update": 1764009445510
  },
  {
    "number": 116,
    "id": "116",
    "contract_name": "dublin",
    "name": "BROADSTONE",
    "address": "Broadstone",
    "position": {
      "lat": 53.3547,
      "lng": -6.272314
    },
    "banking": false,
    "bonus": false,
    "bike_stands": 56,
    "available_bike_stands": 48,
    "available_bikes": 8,
    "status": "OPEN",
    "last_update": 1764009445510
  },
  {
    "number": 55,
    "id": "55",
    "contract_name": "dublin",
    "name": "HATCH STREET",
    "address": "Hatch Street",
    "position": {
      "lat": 53.33403,
      "lng": -6.260714
    },
    "banking": false,
    "bonus": false,
    "bike_stands": 46,
    "available_bike_stands": 6,
    "available_bikes": 40,
    "status": "OPEN",
    "last_update": 1764009445510
  },
  {
    "number": 62,
    "id": "62",
    "contract_name": "dublin",
    "name": "LIME STREET",
    "address": "Lime Street",
    "position": {
      "lat": 53.346026,
      "lng": -6.243576
    },
    "banking": false,
    "bonus": false,
    "bike_stands": 20,
    "available_bike_stands": 4,
    "available_bikes": 16,
    "status": "OPEN",
    "last_update": 1764009445510
  },
  {
    "number": 5,
    "id": "5",
    "contract_name": "dublin",
    "name": "CHARLEMONT PLACE",
    "address": "Charlemont Street",
    "position": {
      "lat": 53.330662,
      "lng": -6.260177
    },
    "banking": false,
    "bonus": false,
    "bike_stands": 35,
    "available_bike_stands": 23,
    "available_bikes": 12,
    "status": "OPEN",
    "last_update": 1764009445510
  },
  {
    "number": 97,
    "id": "97",
    "contract_name": "dublin",
    "name": "KILMAINHAM GAOL",
    "address": "Kilmainham Gaol",
    "position": {
      "lat": 53.342113,
      "lng": -6.310015
    },
    "banking": false,
    "bonus": false,
    "bike_stands": 53,
    "available_bike_stands": 18,
    "available_bikes": 35,
    "status": "OPEN",
    "last_update": 1764009445510
  },
  {
    "number": 61,
    "id": "61",
    "contract_name": "dublin",
    "name": "HARDWICKE PLACE",
    "address": "Hardwicke Place",
    "position": {
      "lat": 53.357043,
      "lng": -6.263232
    },
    "banking": false,
    "bonus": false,
    "bike_stands": 50,
    "available_bike_stands": 24,
    "available_bikes": 26,
    "status": "OPEN",
    "last_update": 1764009445510
  },
  {
    "number": 77,
    "id": "77",
    "contract_name": "dublin",
    "name": "WOLFE TONE STREET",
    "address": "Wolfe Tone Street",
    "position": {
      "lat": 53.348875,
      "lng": -6.267459
    },
    "banking": false,
    "bonus": false,
    "bike_stands": 12,
    "available_bike_stands": 1,
    "available_bikes": 11,
    "status": "OPEN",
    "last_update": 1764009445510
  },
  {
    "number": 73,
    "id": "73",
    "contract_name": "dublin",
    "name": "FRANCIS STREET",
    "address": "Francis Street",
    "position": {
      "lat": 53.342081,
      "lng": -6.275233
    },
    "banking": false,
    "bonus": false,
    "bike_stands": 24,
    "available_bike_stands": 22,
    "available_bikes": 2,
    "status": "OPEN",
    "last_update": 1764009445510
  },
  {
    "number": 4,
    "id": "4",
    "contract_name": "dublin",
    "name": "GREEK STREET",
    "address": "Greek Street",
    "position": {
      "lat": 53.346874,
      "lng": -6.272976
    },
    "banking": false,
    "bonus": false,
    "bike_stands": 20,
    "available_bike_stands": 9,
    "available_bikes": 11,
    "status": "OPEN",
    "last_update": 1764009445510
  },
  {
    "number": 49,
    "id": "49",
    "contract_name": "dublin",
    "name": "GUILD STREET",
    "address": "Guild Street",
    "position": {
      "lat": 53.347932,
      "lng": -6.240928
    },
    "banking": false,
    "bonus": false,
    "bike_stands": 55,
    "available_bike_stands": 31,
    "available_bikes": 24,
    "status": "OPEN",
    "last_update": 1764009445510
  },
  {
    "number": 19,
    "id": "19",
    "contract_name": "dublin",
    "name": "HERBERT PLACE",
    "address": "Herbert Place",
    "position": {
      "lat": 53.334432,
      "lng": -6.245575
    },
    "banking": false,
    "bonus": false,
    "bike_stands": 48,
    "available_bike_stands": 35,
    "available_bikes": 13,
    "status": "OPEN",
    "last_update": 1764009445510
  },
  {
    "number": 7,
    "id": "7",
    "contract_name": "dublin",
    "name": "HIGH STREET",
    "address": "High Street",
    "position": {
      "lat": 53.343565,
      "lng": -6.275071
    },
    "banking": false,
    "bonus": false,
    "bike_stands": 55,
    "available_bike_stands": 24,
    "available_bikes": 31,
    "status": "OPEN",
    "last_update": 1764009445510
  },
  {
    "number": 60,
    "id": "60",
    "contract_name": "dublin",
    "name": "NORTH CIRCULAR ROAD",
    "address": "North Circular Road",
    "position": {
      "lat": 53.359624,
      "lng": -6.260348
    },
    "banking": false,
    "bonus": false,
    "bike_stands": 33,
    "available_bike_stands": 10,
    "available_bikes": 23,
    "status": "OPEN",
    "last_update": 1764009445510
  },
  {
    "number": 102,
    "id": "102",
    "contract_name": "dublin",
    "name": "WESTERN WAY",
    "address": "Western Way",
    "position": {
      "lat": 53.354929,
      "lng": -6.269425
    },
    "banking": false,
    "bonus": false,
    "bike_stands": 17,
    "available_bike_stands": 0,
    "available_bikes": 17,
    "status": "OPEN",
    "last_update": 1764009445510
  },
  {
    "number": 38,
    "id": "38",
    "contract_name": "dublin",
    "name": "TALBOT STREET",
    "address": "Talbot Street",
    "position": {
      "lat": 53.350974,
      "lng": -6.25294
    },
    "banking": false,
    "bonus": false,
    "bike_stands": 17,
    "available_bike_stands": 3,
    "available_bikes": 14,
    "status": "OPEN",
    "last_update": 1764009445510
  },
  {
    "number": 53,
    "id": "53",
    "contract_name": "dublin",
    "name": "NEWMAN HOUSE",
    "address": "Newman House",
    "position": {
      "lat": 53.337132,
      "lng": -6.26059
    },
    "banking": false,
    "bonus": false,
    "bike_stands": 51,
    "available_bike_stands": 24,
    "available_bikes": 27,
    "status": "OPEN",
    "last_update": 1764009445510
  },
  {
    "number": 58,
    "id": "58",
    "contract_name": "dublin",
    "name": "SIR PATRICK DUN\u0027S",
    "address": "Sir Patrick\u0027s Dun",
    "position": {
      "lat": 53.339218,
      "lng": -6.240642
    },
    "banking": false,
    "bonus": false,
    "bike_stands": 50,
    "available_bike_stands": 7,
    "available_bikes": 43,
    "status": "OPEN",
    "last_update": 1764009445510
  },
  {
    "number": 66,
    "id": "66",
    "contract_name": "dublin",
    "name": "NEW CENTRAL BANK",
    "address": "New Central Bank",
    "position": {
      "lat": 53.347122,
      "lng": -6.234749
    },
    "banking": false,
    "bonus": false,
    "bike_stands": 11,
    "available_bike_stands": 8,
    "available_bikes": 3,
    "status": "OPEN",
    "last_update": 1764009445510
  },
  {
    "number": 104,
    "id": "104",
    "contract_name": "dublin",
    "name": "GRANGEGORMAN LOWER (CENTRAL)",
    "address": "Grangegorman Lower (Central)",
    "position": {
      "lat": 53.355173,
      "lng": -6.278424
    },
    "banking": false,
    "bonus": false,
    "bike_stands": 22,
    "available_bike_stands": 18,
    "available_bikes": 4,
    "status": "OPEN",
    "last_update": 1764009445510
  },
  {
    "number": 101,
    "id": "101",
    "contract_name": "dublin",
    "name": "KING STREET NORTH",
    "address": "King Street North",
    "position": {
      "lat": 53.350291,
      "lng": -6.273507
    },
    "banking": false,
    "bonus": false,
    "bike_stands": 17,
    "available_bike_stands": 6,
    "available_bikes": 11,
    "status": "OPEN",
    "last_update": 1764009445510
  },
  {
    "number": 115,
    "id": "115",
    "contract_name": "dublin",
    "name": "KILLARNEY STREET",
    "address": "Killarney Street",
    "position": {
      "lat": 53.354845,
      "lng": -6.247579
    },
    "banking": false,
    "bonus": false,
    "bike_stands": 34,
    "available_bike_stands": 27,
    "available_bikes": 7,
    "status": "OPEN",
    "last_update": 1764009445510
  },
  {
    "number": 47,
    "id": "47",
    "contract_name": "dublin",
    "name": "HERBERT STREET",
    "address": "Herbert Street",
    "position": {
      "lat": 53.335742,
      "lng": -6.24551
    },
    "banking": false,
    "bonus": false,
    "bike_stands": 18,
    "available_bike_stands": 16,
    "available_bikes": 2,
    "status": "OPEN",
    "last_update": 1764009445510
  },
  {
    "number": 117,
    "id": "117",
    "contract_name": "dublin",
    "name": "HANOVER QUAY EAST",
    "address": "Hanover Quay East",
    "position": {
      "lat": 53.343653,
      "lng": -6.231755
    },
    "banking": false,
    "bonus": false,
    "bike_stands": 54,
    "available_bike_stands": 45,
    "available_bikes": 9,
    "status": "OPEN",
    "last_update": 1764009445510
  },
  {
    "number": 8,
    "id": "8",
    "contract_name": "dublin",
    "name": "CUSTOM HOUSE QUAY",
    "address": "Custom House Quay",
    "position": {
      "lat": 53.347884,
      "lng": -6.248048
    },
    "banking": false,
    "bonus": false,
    "bike_stands": 27,
    "available_bike_stands": 26,
    "available_bikes": 1,
    "status": "OPEN",
    "last_update": 1764009445510
  },
  {
    "number": 27,
    "id": "27",
    "contract_name": "dublin",
    "name": "MOLESWORTH STREET",
    "address": "Molesworth Street",
    "position": {
      "lat": 53.341288,
      "lng": -6.258117
    },
    "banking": false,
    "bonus": false,
    "bike_stands": 47,
    "available_bike_stands": 36,
    "available_bikes": 11,
    "status": "OPEN",
    "last_update": 1764009445510
  },
  {
    "number": 16,
    "id": "16",
    "contract_name": "dublin",
    "name": "GEORGES QUAY",
    "address": "Georges Quay",
    "position": {
      "lat": 53.347508,
      "lng": -6.252192
    },
    "banking": false,
    "bonus": false,
    "bike_stands": 11,
    "available_bike_stands": 9,
    "available_bikes": 2,
    "status": "OPEN",
    "last_update": 1764009445510
  },
  {
    "number": 96,
    "id": "96",
    "contract_name": "dublin",
    "name": "KILMAINHAM LANE",
    "address": "Kilmainham Lane",
    "position": {
      "lat": 53.341805,
      "lng": -6.305085
    },
    "banking": false,
    "bonus": false,
    "bike_stands": 43,
    "available_bike_stands": 10,
    "available_bikes": 33,
    "status": "OPEN",
    "last_update": 1764009445510
  },
  {
    "number": 82,
    "id": "82",
    "contract_name": "dublin",
    "name": "MOUNT BROWN",
    "address": "Mount Brown",
    "position": {
      "lat": 53.341645,
      "lng": -6.29719
    },
    "banking": false,
    "bonus": false,
    "bike_stands": 53,
    "available_bike_stands": 4,
    "available_bikes": 49,
    "status": "OPEN",
    "last_update": 1764009445510
  },
  {
    "number": 76,
    "id": "76",
    "contract_name": "dublin",
    "name": "MARKET STREET SOUTH",
    "address": "Market Street South",
    "position": {
      "lat": 53.342296,
      "lng": -6.287661
    },
    "banking": false,
    "bonus": false,
    "bike_stands": 29,
    "available_bike_stands": 29,
    "available_bikes": 0,
    "status": "CLOSED",
    "last_update": 1764009445510
  },
  {
    "number": 71,
    "id": "71",
    "contract_name": "dublin",
    "name": "KEVIN STREET",
    "address": "Kevin Street",
    "position": {
      "lat": 53.337757,
      "lng": -6.267699
    },
    "banking": false,
    "bonus": false,
    "bike_stands": 11,
    "available_bike_stands": 9,
    "available_bikes": 2,
    "status": "OPEN",
    "last_update": 1764009445510
  },
  {
    "number": 79,
    "id": "79",
    "contract_name": "dublin",
    "name": "ECCLES STREET EAST",
    "address": "Eccles Street East",
    "position": {
      "lat": 53.358115,
      "lng": -6.265601
    },
    "banking": false,
    "bonus": false,
    "bike_stands": 47,
    "available_bike_stands": 44,
    "available_bikes": 3,
    "status": "OPEN",
    "last_update": 1764009445510
  },
  {
    "number": 69,
    "id": "69",
    "contract_name": "dublin",
    "name": "GRAND CANAL DOCK",
    "address": "Grand Canal Dock",
    "position": {
      "lat": 53.342638,
      "lng": -6.238695
    },
    "banking": false,
    "bonus": false,
    "bike_stands": 59,
    "available_bike_stands": 59,
    "available_bikes": 0,
    "status": "CLOSED",
    "last_update": 1764009445510
  },
  {
    "number": 25,
    "id": "25",
    "contract_name": "dublin",
    "name": "MERRION SQUARE EAST",
    "address": "Merrion Square East",
    "position": {
      "lat": 53.339434,
      "lng": -6.246548
    },
    "banking": false,
    "bonus": false,
    "bike_stands": 23,
    "available_bike_stands": 18,
    "available_bikes": 5,
    "status": "OPEN",
    "last_update": 1764009445510
  },
  {
    "number": 51,
    "id": "51",
    "contract_name": "dublin",
    "name": "YORK STREET WEST",
    "address": "York Street West",
    "position": {
      "lat": 53.339334,
      "lng": -6.264699
    },
    "banking": false,
    "bonus": false,
    "bike_stands": 33,
    "available_bike_stands": 15,
    "available_bikes": 18,
    "status": "OPEN",
    "last_update": 1764009445510
  },
  {
    "number": 37,
    "id": "37",
    "contract_name": "dublin",
    "name": "ST. STEPHEN\u0027S GREEN SOUTH",
    "address": "St. Stephen\u0027s Green South",
    "position": {
      "lat": 53.337494,
      "lng": -6.26199
    },
    "banking": false,
    "bonus": false,
    "bike_stands": 43,
    "available_bike_stands": 35,
    "available_bikes": 8,
    "status": "OPEN",
    "last_update": 1764009445510
  },
  {
    "number": 59,
    "id": "59",
    "contract_name": "dublin",
    "name": "DENMARK STREET GREAT",
    "address": "Denmark Street Great",
    "position": {
      "lat": 53.35561,
      "lng": -6.261397
    },
    "banking": false,
    "bonus": false,
    "bike_stands": 37,
    "available_bike_stands": 1,
    "available_bikes": 36,
    "status": "OPEN",
    "last_update": 1764009445510
  },
  {
    "number": 95,
    "id": "95",
    "contract_name": "dublin",
    "name": "ROYAL HOSPITAL",
    "address": "Royal Hospital",
    "position": {
      "lat": 53.343897,
      "lng": -6.29706
    },
    "banking": false,
    "bonus": false,
    "bike_stands": 47,
    "available_bike_stands": 36,
    "available_bikes": 11,
    "status": "OPEN",
    "last_update": 1764009445510
  },
  {
    "number": 94,
    "id": "94",
    "contract_name": "dublin",
    "name": "HEUSTON STATION (CAR PARK)",
    "address": "Heuston Station (Car Park)",
    "position": {
      "lat": 53.346985,
      "lng": -6.297804
    },
    "banking": false,
    "bonus": false,
    "bike_stands": 44,
    "available_bike_stands": 33,
    "available_bikes": 11,
    "status": "OPEN",
    "last_update": 1764009445510
  },
  {
    "number": 105,
    "id": "105",
    "contract_name": "dublin",
    "name": "GRANGEGORMAN LOWER (NORTH)",
    "address": "Grangegorman Lower (North)",
    "position": {
      "lat": 53.355954,
      "lng": -6.278378
    },
    "banking": false,
    "bonus": false,
    "bike_stands": 55,
    "available_bike_stands": 14,
    "available_bikes": 41,
    "status": "OPEN",
    "last_update": 1764009445510
  },
  {
    "number": 36,
    "id": "36",
    "contract_name": "dublin",
    "name": "ST. STEPHEN\u0027S GREEN EAST",
    "address": "St. Stephen\u0027s Green East",
    "position": {
      "lat": 53.337824,
      "lng": -6.256035
    },
    "banking": false,
    "bonus": false,
    "bike_stands": 60,
    "available_bike_stands": 44,
    "available_bikes": 16,
    "status": "OPEN",
    "last_update": 1764009445510
  },
  {
    "number": 93,
    "id": "93",
    "contract_name": "dublin",
    "name": "HEUSTON STATION (CENTRAL)",
    "address": "Heuston Station (Central)",
    "position": {
      "lat": 53.346603,
      "lng": -6.296924
    },
    "banking": false,
    "bonus": false,
    "bike_stands": 33,
    "available_bike_stands": 6,
    "available_bikes": 27,
    "status": "OPEN",
    "last_update": 1764009445510
  },
  {
    "number": 22,
    "id": "22",
    "contract_name": "dublin",
    "name": "TOWNSEND STREET",
    "address": "Townsend Street",
    "position": {
      "lat": 53.345922,
      "lng": -6.254614
    },
    "banking": false,
    "bonus": false,
    "bike_stands": 25,
    "available_bike_stands": 2,
    "available_bikes": 23,
    "status": "OPEN",
    "last_update": 1764009445510
  },
  {
    "number": 50,
    "id": "50",
    "contract_name": "dublin",
    "name": "GEORGES LANE",
    "address": "George\u0027s Lane",
    "position": {
      "lat": 53.35023,
      "lng": -6.279696
    },
    "banking": false,
    "bonus": false,
    "bike_stands": 22,
    "available_bike_stands": 8,
    "available_bikes": 14,
    "status": "OPEN",
    "last_update": 1764009445510
  },
  {
    "number": 110,
    "id": "110",
    "contract_name": "dublin",
    "name": "PHIBSBOROUGH ROAD",
    "address": "Phibsborough Road",
    "position": {
      "lat": 53.356307,
      "lng": -6.273717
    },
    "banking": false,
    "bonus": false,
    "bike_stands": 35,
    "available_bike_stands": 13,
    "available_bikes": 22,
    "status": "OPEN",
    "last_update": 1764009445510
  },
  {
    "number": 12,
    "id": "12",
    "contract_name": "dublin",
    "name": "ECCLES STREET",
    "address": "Eccles Street",
    "position": {
      "lat": 53.359246,
      "lng": -6.269779
    },
    "banking": false,
    "bonus": false,
    "bike_stands": 16,
    "available_bike_stands": 13,
    "available_bikes": 3,
    "status": "OPEN",
    "last_update": 1764009445510
  },
  {
    "number": 34,
    "id": "34",
    "contract_name": "dublin",
    "name": "PORTOBELLO HARBOUR",
    "address": "Portobello Harbour",
    "position": {
      "lat": 53.330362,
      "lng": -6.265163
    },
    "banking": false,
    "bonus": false,
    "bike_stands": 47,
    "available_bike_stands": 32,
    "available_bikes": 15,
    "status": "OPEN",
    "last_update": 1764009445510
  },
  {
    "number": 78,
    "id": "78",
    "contract_name": "dublin",
    "name": "MATER HOSPITAL",
    "address": "Mater Hospital",
    "position": {
      "lat": 53.359967,
      "lng": -6.264828
    },
    "banking": false,
    "bonus": false,
    "bike_stands": 14,
    "available_bike_stands": 5,
    "available_bikes": 9,
    "status": "OPEN",
    "last_update": 1764009445510
  },
  {
    "number": 75,
    "id": "75",
    "contract_name": "dublin",
    "name": "JAMES STREET",
    "address": "James Street",
    "position": {
      "lat": 53.343456,
      "lng": -6.287409
    },
    "banking": false,
    "bonus": false,
    "bike_stands": 33,
    "available_bike_stands": 29,
    "available_bikes": 4,
    "status": "OPEN",
    "last_update": 1764009445510
  },
  {
    "number": 111,
    "id": "111",
    "contract_name": "dublin",
    "name": "MOUNTJOY SQUARE EAST",
    "address": "Mountjoy Square East",
    "position": {
      "lat": 53.356717,
      "lng": -6.256359
    },
    "banking": false,
    "bonus": false,
    "bike_stands": 33,
    "available_bike_stands": 31,
    "available_bikes": 2,
    "status": "OPEN",
    "last_update": 1764009445510
  },
  {
    "number": 26,
    "id": "26",
    "contract_name": "dublin",
    "name": "MERRION SQUARE WEST",
    "address": "Merrion Square West",
    "position": {
      "lat": 53.339764,
      "lng": -6.251988
    },
    "banking": false,
    "bonus": false,
    "bike_stands": 10,
    "available_bike_stands": 6,
    "available_bikes": 4,
    "status": "OPEN",
    "last_update": 1764009445510
  },
  {
    "number": 65,
    "id": "65",
    "contract_name": "dublin",
    "name": "CONVENTION CENTRE",
    "address": "Convention Centre",
    "position": {
      "lat": 53.34744,
      "lng": -6.238523
    },
    "banking": false,
    "bonus": false,
    "bike_stands": 55,
    "available_bike_stands": 17,
    "available_bikes": 38,
    "status": "OPEN",
    "last_update": 1764009445510
  },
  {
    "number": 86,
    "id": "86",
    "contract_name": "dublin",
    "name": "PARKGATE STREET",
    "address": "Parkgate Street",
    "position": {
      "lat": 53.347972,
      "lng": -6.291804
    },
    "banking": false,
    "bonus": false,
    "bike_stands": 18,
    "available_bike_stands": 8,
    "available_bikes": 10,
    "status": "OPEN",
    "last_update": 1764009445510
  },
  {
    "number": 35,
    "id": "35",
    "contract_name": "dublin",
    "name": "SMITHFIELD",
    "address": "Smithfield",
    "position": {
      "lat": 53.347692,
      "lng": -6.278214
    },
    "banking": false,
    "bonus": false,
    "bike_stands": 25,
    "available_bike_stands": 25,
    "available_bikes": 0,
    "status": "CLOSED",
    "last_update": 1764009445510
  },
  {
    "number": 10,
    "id": "10",
    "contract_name": "dublin",
    "name": "DAME STREET",
    "address": "Dame Street",
    "position": {
      "lat": 53.344007,
      "lng": -6.266802
    },
    "banking": false,
    "bonus": false,
    "bike_stands": 60,
    "available_bike_stands": 3,
    "available_bikes": 57,
    "status": "OPEN",
    "last_update": 1764009445510
  },
  {
    "number": 100,
    "id": "100",
    "contract_name": "dublin",
    "name": "HEUSTON BRIDGE (SOUTH)",
    "address": "Heuston Bridge (South)",
    "position": {
      "lat": 53.347106,
      "lng": -6.292041
    },
    "banking": false,
    "bonus": false,
    "bike_stands": 33,
    "available_bike_stands": 21,
    "available_bikes": 12,
    "status": "OPEN",
    "last_update": 1764009445510
  },
  {
    "number": 24,
    "id": "24",
    "contract_name": "dublin",
    "name": "CATHAL BRUGHA STREET",
    "address": "Cathal Brugha Street",
    "position": {
      "lat": 53.352149,
      "lng": -6.260533
    },
    "banking": false,
    "bonus": false,
    "bike_stands": 12,
    "available_bike_stands": 11,
    "available_bikes": 1,
    "status": "OPEN",
    "last_update": 1764009445510
  },
  {
    "number": 64,
    "id": "64",
    "contract_name": "dublin",
    "name": "SANDWITH STREET",
    "address": "Sandwith Street",
    "position": {
      "lat": 53.345203,
      "lng": -6.247163
    },
    "banking": false,
    "bonus": false,
    "bike_stands": 27,
    "available_bike_stands": 16,
    "available_bikes": 11,
    "status": "OPEN",
    "last_update": 1764009445510
  },
  {
    "number": 109,
    "id": "109",
    "contract_name": "dublin",
    "name": "BUCKINGHAM STREET LOWER",
    "address": "Buckingham Street Lower",
    "position": {
      "lat": 53.353331,
      "lng": -6.249319
    },
    "banking": false,
    "bonus": false,
    "bike_stands": 33,
    "available_bike_stands": 17,
    "available_bikes": 16,
    "status": "OPEN",
    "last_update": 1764009445510
  },
  {
    "number": 85,
    "id": "85",
    "contract_name": "dublin",
    "name": "ROTHE ABBEY",
    "address": "Rothe Abbey",
    "position": {
      "lat": 53.338776,
      "lng": -6.30395
    },
    "banking": false,
    "bonus": false,
    "bike_stands": 26,
    "available_bike_stands": 7,
    "available_bikes": 19,
    "status": "OPEN",
    "last_update": 1764009445510
  },
  {
    "number": 107,
    "id": "107",
    "contract_name": "dublin",
    "name": "CHARLEVILLE ROAD",
    "address": "Charleville Road",
    "position": {
      "lat": 53.359157,
      "lng": -6.281866
    },
    "banking": false,
    "bonus": false,
    "bike_stands": 17,
    "available_bike_stands": 12,
    "available_bikes": 5,
    "status": "OPEN",
    "last_update": 1764009445510
  },
  {
    "number": 33,
    "id": "33",
    "contract_name": "dublin",
    "name": "PRINCES STREET / O\u0027CONNELL STREET",
    "address": "Princes Street / O\u0027Connell Street",
    "position": {
      "lat": 53.349013,
      "lng": -6.260311
    },
    "banking": false,
    "bonus": false,
    "bike_stands": 36,
    "available_bike_stands": 25,
    "available_bikes": 11,
    "status": "OPEN",
    "last_update": 1764009445510
  },
  {
    "number": 44,
    "id": "44",
    "contract_name": "dublin",
    "name": "UPPER SHERRARD STREET",
    "address": "Upper Sherrard Street",
    "position": {
      "lat": 53.358437,
      "lng": -6.260641
    },
    "banking": false,
    "bonus": false,
    "bike_stands": 52,
    "available_bike_stands": 28,
    "available_bikes": 24,
    "status": "OPEN",
    "last_update": 1764009445510
  },
  {
    "number": 89,
    "id": "89",
    "contract_name": "dublin",
    "name": "FITZWILLIAM SQUARE EAST",
    "address": "Fitzwilliam Square East",
    "position": {
      "lat": 53.335211,
      "lng": -6.2509
    },
    "banking": false,
    "bonus": false,
    "bike_stands": 13,
    "available_bike_stands": 10,
    "available_bikes": 3,
    "status": "OPEN",
    "last_update": 1764009445510
  },
  {
    "number": 57,
    "id": "57",
    "contract_name": "dublin",
    "name": "GRATTAN STREET",
    "address": "Grattan Street",
    "position": {
      "lat": 53.339629,
      "lng": -6.243778
    },
    "banking": false,
    "bonus": false,
    "bike_stands": 28,
    "available_bike_stands": 11,
    "available_bikes": 17,
    "status": "OPEN",
    "last_update": 1764009445510
  },
  {
    "number": 80,
    "id": "80",
    "contract_name": "dublin",
    "name": "ST JAMES HOSPITAL (LUAS)",
    "address": "St James Hospital (Luas)",
    "position": {
      "lat": 53.341359,
      "lng": -6.292951
    },
    "banking": false,
    "bonus": false,
    "bike_stands": 28,
    "available_bike_stands": 24,
    "available_bikes": 4,
    "status": "OPEN",
    "last_update": 1764009445510
  },
  {
    "number": 41,
    "id": "41",
    "contract_name": "dublin",
    "name": "HARCOURT TERRACE",
    "address": "Harcourt Terrace",
    "position": {
      "lat": 53.332763,
      "lng": -6.257942
    },
    "banking": false,
    "bonus": false,
    "bike_stands": 25,
    "available_bike_stands": 16,
    "available_bikes": 9,
    "status": "OPEN",
    "last_update": 1764009445510
  },
  {
    "number": 3,
    "id": "3",
    "contract_name": null,
    "name": "test",
    "address": "Broadstone",
    "position": null,
    "banking": false,
    "bonus": false,
    "bike_stands": 28,
    "available_bike_stands": 2,
    "available_bikes": 26,
    "status": "OPEN",
    "last_update": 1764009445511
  },
  {
    "number": 40,
    "id": "40",
    "contract_name": "dublin",
    "name": "JERVIS STREET",
    "address": "Jervis Street",
    "position": {
      "lat": 53.3483,
      "lng": -6.266651
    },
    "banking": false,
    "bonus": false,
    "bike_stands": 42,
    "available_bike_stands": 37,
    "available_bikes": 5,
    "status": "OPEN",
    "last_update": 1764009445510
  },
  {
    "number": 29,
    "id": "29",
    "contract_name": "dublin",
    "name": "ORMOND QUAY UPPER",
    "address": "Ormond Quay Upper",
    "position": {
      "lat": 53.346057,
      "lng": -6.268001
    },
    "banking": false,
    "bonus": false,
    "bike_stands": 54,
    "available_bike_stands": 25,
    "available_bikes": 29,
    "status": "OPEN",
    "last_update": 1764009445510
  },
  {
    "number": 103,
    "id": "103",
    "contract_name": "dublin",
    "name": "GRANGEGORMAN LOWER (SOUTH)",
    "address": "Grangegorman Lower (South)",
    "position": {
      "lat": 53.354663,
      "lng": -6.278681
    },
    "banking": false,
    "bonus": false,
    "bike_stands": 42,
    "available_bike_stands": 1,
    "available_bikes": 41,
    "status": "OPEN",
    "last_update": 1764009445510
  },
  {
    "number": 28,
    "id": "28",
    "contract_name": "dublin",
    "name": "MOUNTJOY SQUARE WEST",
    "address": "Mountjoy Square West",
    "position": {
      "lat": 53.356299,
      "lng": -6.258586
    },
    "banking": false,
    "bonus": false,
    "bike_stands": 28,
    "available_bike_stands": 12,
    "available_bikes": 16,
    "status": "OPEN",
    "last_update": 1764009445510
  },
  {
    "number": 39,
    "id": "39",
    "contract_name": "dublin",
    "name": "WILTON TERRACE",
    "address": "Wilton Terrace",
    "position": {
      "lat": 53.332383,
      "lng": -6.252717
    },
    "banking": false,
    "bonus": false,
    "bike_stands": 27,
    "available_bike_stands": 6,
    "available_bikes": 21,
    "status": "OPEN",
    "last_update": 1764009445510
  },
  {
    "number": 83,
    "id": "83",
    "contract_name": "dublin",
    "name": "EMMET ROAD",
    "address": "Emmet Road",
    "position": {
      "lat": 53.340714,
      "lng": -6.308191
    },
    "banking": false,
    "bonus": false,
    "bike_stands": 43,
    "available_bike_stands": 36,
    "available_bikes": 7,
    "status": "OPEN",
    "last_update": 1764009445510
  },
  {
    "number": 92,
    "id": "92",
    "contract_name": "dublin",
    "name": "HEUSTON BRIDGE (NORTH)",
    "address": "Heuston Bridge (North)",
    "position": {
      "lat": 53.347802,
      "lng": -6.292432
    },
    "banking": false,
    "bonus": false,
    "bike_stands": 15,
    "available_bike_stands": 0,
    "available_bikes": 15,
    "status": "OPEN",
    "last_update": 1764009445510
  },
  {
    "number": 21,
    "id": "21",
    "contract_name": "dublin",
    "name": "LEINSTER STREET SOUTH",
    "address": "Leinster Street South",
    "position": {
      "lat": 53.34218,
      "lng": -6.254485
    },
    "banking": false,
    "bonus": false,
    "bike_stands": 18,
    "available_bike_stands": 13,
    "available_bikes": 5,
    "status": "OPEN",
    "last_update": 1764009445511
  },
  {
    "number": 88,
    "id": "88",
    "contract_name": "dublin",
    "name": "BLACKHALL PLACE",
    "address": "Blackhall Place",
    "position": {
      "lat": 53.3488,
      "lng": -6.281637
    },
    "banking": false,
    "bonus": false,
    "bike_stands": 18,
    "available_bike_stands": 15,
    "available_bikes": 3,
    "status": "OPEN",
    "last_update": 1764009445511
  },
  {
    "number": 3,
    "id": "3",
    "contract_name": null,
    "name": "test",
    "address": "Broadstone",
    "position": null,
    "banking": false,
    "bonus": false,
    "bike_stands": 28,
    "available_bike_stands": 2,
    "available_bikes": 26,
    "status": "OPEN",
    "last_update": 1764009445511
  },
  {
    "number": 1,
    "id": "1",
    "contract_name": null,
    "name": "test",
    "address": "test",
    "position": null,
    "banking": false,
    "bonus": false,
    "bike_stands": 1,
    "available_bike_stands": 1,
    "available_bikes": 1,
    "status": null,
    "last_update": 0
  },
  {
    "number": 2,
    "id": "2",
    "contract_name": null,
    "name": "test",
    "address": "test",
    "position": null,
    "banking": false,
    "bonus": false,
    "bike_stands": 0,
    "available_bike_stands": 1,
    "available_bikes": 2,
    "status": null,
    "last_update": 0
  }
]